{"type":"FeatureCollection","features":[{"type":"Feature","geometry":{"type":"Point","coordinates":[-38.2031725477131,-9.39818087420604]},"properties":{"nome":"Usina Hidrelétrica Paulo Afonso I","geometriaa":"Não","tipoestger":"Hidrelétrica","operaciona":"Sim","situacaofi":"Construída","tipoahe":"UHE","Latitude":-9.39818,"Longitude":-38.20317}},{"type":"Feature","geometry":{"type":"Point","coordinates":[-38.2078285422904,-9.41589736282057]},"properties":{"nome":"Usina Hidrelétrica Paulo Afonso IV","geometriaa":"Não","tipoestger":"Hidrelétrica","operaciona":"Sim","situacaofi":"Construída","tipoahe":"UHE","Latitude":"-9.41590","Longitude":-38.20783}},{"type":"Feature","geometry":{"type":"Point","coordinates":[-38.196420148618,-9.39203075194943]},"properties":{"nome":"Usina Angiquinho","geometriaa":"Não","tipoestger":"Hidrelétrica","operaciona":"Sim","situacaofi":"Desconhecida","tipoahe":"UHE","Latitude":-9.39203,"Longitude":-38.19642}},{"type":"Feature","geometry":{"type":"Point","coordinates":[-38.2027521462622,-9.39687387668079]},"properties":{"nome":"Usina Hidrelétrica Paulo Afonso II","geometriaa":"Não","tipoestger":"Hidrelétrica","operaciona":"Sim","situacaofi":"Construída","tipoahe":"UHE","Latitude":-9.39687,"Longitude":-38.20275}},{"type":"Feature","geometry":{"type":"Point","coordinates":[-38.2020268761533,-9.39602487628107]},"properties":{"nome":"Usina Hidrelétrica Paulo Afonso IV","geometriaa":"Não","tipoestger":"Hidrelétrica","operaciona":"Sim","situacaofi":"Construída","tipoahe":"UHE","Latitude":-9.39602,"Longitude":-38.20203}},{"type":"Feature","geometry":{"type":"Point","coordinates":[-38.2073546941453,-9.35749412149804]},"properties":{"nome":"Usina Hidrelétrica Apolônio Sales","geometriaa":"Não","ceg":"UHE.PH.AL.001510-5.01","tipoestger":"Hidrelétrica","operaciona":"Sim","situacaofi":"Construída","potenciaou":"400000.000000000000000","tipoahe":"UHE","CD_MUN":2702405,"NM_MUN":"Delmiro Gouveia","Latitude":-9.35749,"Longitude":-38.20735}},{"type":"Feature","geometry":{"type":"Point","coordinates":[-37.7972228748983,-9.62501498049759]},"properties":{"nome":"Usina Hidrelétrica Xingó","geometriaa":"Não","ceg":"UHE.PH.SE.027053-9.01","tipoestger":"Hidrelétrica","operaciona":"Sim","situacaofi":"Construída","potenciaou":"3162000.000000000000000","tipoahe":"UHE","Latitude":-9.62501,"Longitude":-37.79722}}]}